[
  {
    "code": "700007",
    "name": "Алматы 1",
    "region": "Алматинская область",
    "road": "Алматинская железная дорога",
    "department": "Алматинское отделение",
    "country": "Казахстан",
    "latitude": 43.285,
    "longitude": 76.945
  },
  {
    "code": "700008",
    "name": "Алматы 2",
    "region": "Алматинская область",
    "road": "Алматинская железная дорога",
    "department": "Алматинское отделение",
    "country": "Казахстан",
    "latitude": 43.256,
    "longitude": 76.928
  },
  {
    "code": "700010",
    "name": "Шымкент",
    "region": "Туркестанская область",
    "road": "Южно-Казахстанская железная дорога",
    "department": "Шымкентское отделение",
    "country": "Казахстан",
    "latitude": 42.316,
    "longitude": 69.595
  },
  {
    "code": "700011",
    "name": "Астана (Нур-Султан)",
    "region": "Акмолинская область",
    "road": "Северо-Казахстанская железная дорога",
    "department": "Астанинское отделение",
    "country": "Казахстан",
    "latitude": 51.128,
    "longitude": 71.43
  },
  {
    "code": "700013",
    "name": "Караганда",
    "region": "Карагандинская область",
    "road": "Карагандинская железная дорога",
    "department": "Карагандинское отделение",
    "country": "Казахстан",
    "latitude": 49.806,
    "longitude": 73.086
  },
  {
    "code": "700020",
    "name": "Павлодар",
    "region": "Павлодарская область",
    "road": "Северо-Казахстанская железная дорога",
    "department": "Павлодарское отделение",
    "country": "Казахстан",
    "latitude": 52.3,
    "longitude": 76.95
  }
]